,Unnamed: 0,NomdelGrup,Estil,Poblacio,URLvideoYoutube,lat,lon,Region,Nom_Estil,NumRegio
0,0,Abril & Sambola,"Pop d’autor, folk, soul",(Barcelonès),None,41.41342045079222,2.1660813020674476,Catalunya,"Abril & Sambola: Pop d’autor, folk, soul",1.0
1,1,Oxitocina,World Music,Terrassa (Vallès Occidental),None,41.5682143966087,2.015175450374768,Catalunya,Oxitocina: World Music,1.0
2,2,Figaflow,"pop, electrònica, folk",Santpedor (Bages),None,41.790830057095675,1.839238985664689,Catalunya,"Figaflow: pop, electrònica, folk",1.0
3,3,E.M.P.E.,Bedroom Pop,(Vallès Oriental),None,41.650270780822694,2.3336563973353535,Catalunya,E.M.P.E.: Bedroom Pop,1.0
4,4,Reïna,Pop,Manacor (Llevant),None,39.574469033956696,3.2178954695521518, Llevant,Reïna: Pop,nan
5,5,Joan Delapse,Acústic,Granollers (Vallès Oriental),None,41.608296026650876,2.290245066793434,Catalunya,Joan Delapse: Acústic,1.0
6,6,LA MODEL,Indie Pop,Barcelona (Barcelonès),None,41.38839954684094,2.178362525133756,Catalunya,LA MODEL: Indie Pop,1.0
7,7,J del Fosc,Cantautor,Barcelona (Barcelonès),None,41.3863460625192,2.1804088539132493,Catalunya,J del Fosc: Cantautor,1.0
8,8,Joan Blau,Cançó d'autor,Balaguer (Noguera),None,41.79837845432734,0.8059246152506139,Catalunya,Joan Blau: Cançó d'autor,1.0
9,9,Estiula,Pop-rock,Ripol (Ripollès),https://www.youtube.com/watch?v=yuWuTRi2OMk,42.19639,2.30334,Comunitat Valenciana,Estiula: Pop-rock,2.0
10,10,Bataille,Cançó d´autor,Alaró (Mallorca)  (Raiguer),None,39.70890444048433,2.798904893234214,Illes Balears,Bataille: Cançó d´autor,3.0
11,11,paunezz,Pop Folk / Electrònica,Igualada (Anoia),None,41.58220484648125,1.6225343844579483,Catalunya,paunezz: Pop Folk / Electrònica,1.0
12,12,Impaktats,Rap electrònic,Botarell / Les Borges del Camp (Baix Camp),https://www.youtube.com/watch?v=uNWPliAIbwg,41.17460419720239,1.0176643114336266,Catalunya,Impaktats: Rap electrònic,1.0
13,13,Jamaleònics,Mestissatge,Sagunt (Camp de Morvedre),https://www.youtube.com/watch?v=KGr0vCKV-ek,39.682319551760294,-0.2758008979608022,Comunitat Valenciana,Jamaleònics: Mestissatge,2.0
14,14,Plombiers,Indie-Pop,Reus (Baix Camp),None,41.163858440559416,1.111726026509264,Catalunya,Plombiers: Indie-Pop,1.0
15,15,Maria Dolors,Rock,Lloret de Mar (Selva),https://www.youtube.com/watch?v=JqUPWRdaU0c,41.69943953490019,2.8488251474203117,Catalunya,Maria Dolors: Rock,1.0
16,16,Escarràs,"Mestissatge, ska-fusió",Mallorca (Pla de Mallorca),None,39.61721617181838,2.8866547184332996, Pla de Mallorca,"Escarràs: Mestissatge, ska-fusió",nan
17,17,ÒRBITES,indie rock,València (Horta Oest),None,39.47572246006286,-0.37509018731941457,Comunitat Valenciana,ÒRBITES: indie rock,2.0
18,18,Zèfir,Indie Pop,El Vendrell (Baix Penedès),https://www.youtube.com/watch?v=kUAG2zaMbQI,41.229385312121536,1.5390824111722305,Catalunya,Zèfir: Indie Pop,1.0
19,19,Irieix,Pop contemporani,granollers (Vallès Oriental),https://www.youtube.com/watch?v=7_1-fEEK90o ,41.60956576087005,2.297511531176071,Catalunya,Irieix: Pop contemporani,1.0
20,20,NINOT,Synth-pop,Sitges (Garraf),https://www.youtube.com/watch?v=c43kNX5r-4M,41.23961528420298,1.8316556568840128,Catalunya,NINOT: Synth-pop,1.0
21,21,Ingrid,Pop-folk,Vilanova i la Geltrú (Garraf),None,41.22723681040363,1.7283636369254236,Catalunya,Ingrid: Pop-folk,1.0
22,22,QANARUSA,FOLK MALLORQUÍ,SENCELLES (Pla de Mallorca),https://www.youtube.com/watch?v=9N8WVukrK_E&t=9s,39.65420229660207,2.9057301740633004, Pla de Mallorca,QANARUSA: FOLK MALLORQUÍ,nan
23,23,Palmira,Pop Rock,Barcelona (Barcelonès),http://youtube.com/watch?v=oG32pvS2PCI,41.2,2.2,Catalunya,Palmira: Pop Rock,1.0
24,24,Stela Nur,Cançó d'autor,Portbou (Alt Empordà),None,42.43010750823164,3.166873044863516,Catalunya,Stela Nur: Cançó d'autor,1.0
25,25,Aina Palà,Pop,Sant Salvador de Guardiola (Bages),None,41.68101750135539,1.769044120817564,Catalunya,Aina Palà: Pop,1.0
26,26,Laura Centellas,Cançó d'autor / Pop melòdic,Vic (Osona),https://www.youtube.com/channel/UCJkGuWDz2lRbWkeAVRY1veA,41.935240034910095,2.2583568229537567,Catalunya,Laura Centellas: Cançó d'autor / Pop melòdic,1.0
27,27,Lluna Plena,Pop-rock,Igualada (Anoia),https://youtu.be/bxksKGbewis,41.58498743725697,1.6227148299434584,Catalunya,Lluna Plena: Pop-rock,1.0
28,28,Susannes,cantautora rural,Valls (Alt Camp),https://www.youtube.com/watch?v=D2e9CNgXNC8,41.28911706111568,1.2547818594333175,Catalunya,Susannes: cantautora rural,1.0
29,29,Golíat,Post-tot,Granollers (Vallès Oriental),https://www.youtube.com/watch?v=IAroiXy1MC4,41.613004418151,2.2907683119120064,Catalunya,Golíat: Post-tot,1.0
30,30,Cop de Gràcia,Thrash Metal,Girona (Gironès),None,41.98384723039368,2.826930306403681,Catalunya,Cop de Gràcia: Thrash Metal,1.0
31,31,La mangrana,"Punk, Garage, postpunk, Ebrenc",Deltebre (Baix Ebre),https://www.youtube.com/watch?v=i4pMSn39dIw,40.7208400128937,0.7247928725431066,Catalunya,"La mangrana: Punk, Garage, postpunk, Ebrenc",1.0
32,32,Metacrani,Heavy Metal,Barcelona i comarques (Barcelonès),None,41.38827910150486,2.1836568047683973,Catalunya,Metacrani: Heavy Metal,1.0
33,33,Aeroperro,Indie,Esplugues de Llobregat (Baix Llobregat),https://www.youtube.com/watch?v=9oREBh9iI8s,41.38015292569044,2.0928533981417914,Catalunya,Aeroperro: Indie,1.0
34,34,L'enemic,Pop/Rock,Manlleu (Osona),https://www.youtube.com/watch?v=1BIqSzgE13w,42.00900980142644,2.2864030880888486,Catalunya,L'enemic: Pop/Rock,1.0
35,35,Paupiripau,Sí,Parlavà (Baix Empordà),https://www.youtube.com/watch?v=E2NwZtvqbRg,42.02466767935389,3.0362274783454923,Catalunya,Paupiripau: Sí,1.0
36,36,Bona Ventura,Disco-Pop,"Pina, Santa Maria del Camí, Esporles i Son Serra de Marina (Pla de Mallorca)",https://youtu.be/JO_fDelmWfk,39.69,2.78,Comunitat Valenciana,Bona Ventura: Disco-Pop,2.0
37,37,Lles,indie-pop,Collbató (Baix Llobregat),None,41.57107233850247,1.8383711795811546,Catalunya,Lles: indie-pop,1.0
38,38,MIOPS,Pop-Rock,Moià (Moianès) (Bages),https://www.youtube.com/watch?v=LSkw6mgz-CQ&feature=youtu.be,41.818293604616954,2.1016298733488954,Catalunya,MIOPS: Pop-Rock,1.0
39,39,Lxs Duendes del Parque,Cansautores incendiàries,Arbúcies (Selva),https://www.youtube.com/watch?v=ru9ho_lg_RE,41.81891643151441,2.522852849291697,Catalunya,Lxs Duendes del Parque: Cansautores incendiàries,1.0
40,40,Miquel Gomà,rock,Sabadell (Vallès Occidental),https://www.youtube.com/watch?v=mj6zl_obrLQ,41.54845240089658,2.122388082608636,Catalunya,Miquel Gomà: rock,1.0
41,41,Som Guineus,Rock català,Badalona (Barcelonès),https://www.youtube.com/watch?v=0WlJLixTkf8,41.45148960398555,2.2507529135135593,Catalunya,Som Guineus: Rock català,1.0
42,42,Rels,Rock,Eivissa (Eivissa),None,38.97919128512599,1.4288373199500328,Illes Balears,Rels: Rock,3.0
43,43,Microhomes,Pop-electrònic,Barcelona (Barcelonès),https://www.youtube.com/watch?v=mmDfUts4jik,41.392798669394146,2.181833661757631,Catalunya,Microhomes: Pop-electrònic,1.0
44,44,Falcon & Firkin,Pop,Manresa (Bages),https://www.youtube.com/watch?v=T4V6L86JQz4,41.73131630056836,1.8298466430045202,Catalunya,Falcon & Firkin: Pop,1.0
45,45,Verlaat,Pop,Maó (Menorca),https://www.youtube.com/watch?v=FWShLqf2yPM&feature=youtu.be,39.89528590367823,4.273062260769098,Illes Balears,Verlaat: Pop,3.0
46,46,Kòt Lapè,Cançó d'autor amb banda,Barcelona (Barcelonès),https://www.youtube.com/watch?v=N3B-ifMhEHw,41.39137056218646,2.184685921518132,Catalunya,Kòt Lapè: Cançó d'autor amb banda,1.0
47,47,El Cantautoret,"Autor, Pop/rock",Sueca (Ribera Baixa),https://www.youtube.com/watch?v=k6KC0Fz4oCA,39.20616258518406,-0.3029096631884569,Comunitat Valenciana,"El Cantautoret: Autor, Pop/rock",2.0
48,48,SIMI5,Sense definir,Esparreguera (Baix Llobregat),None,41.543922003234215,1.8701531634501016,Catalunya,SIMI5: Sense definir,1.0
49,49,Projecte Castor,mestissatge,Vinaròs (Baix Maestrat),https://www.youtube.com/playlist?list=PLhw6b1QRaV8vujrEuZq7boHuyhN34F01v,40.47988444624916,0.4825950356873766,Comunitat Valenciana,Projecte Castor: mestissatge,2.0
50,50,"Yagmi,The New God",Trap,Terrassa (Vallès Occidental),https://www.youtube.com/channel/UCjhl4DEVlJZg8ejtxuUcxZw?view_as=subscriber,41.571953728958626,2.01793795189756,Catalunya,"Yagmi,The New God: Trap",1.0
51,51,Revolusonats,Hip hop fusió,Terrassa (Vallès Occidental),https://www.youtube.com/watch?v=aRvzrjrz4vY,41.5654190435519,2.0163594985546602,Catalunya,Revolusonats: Hip hop fusió,1.0
52,52,Mama Dousha,Pop,Barcelona (Barcelonès),https://www.youtube.com/watch?v=ujcwQ_c7H2I,41.38518868948593,2.1822889677943977,Catalunya,Mama Dousha: Pop,1.0
53,53,Carles Sanahuja,cançó d'autor,Vilafranca del Penedès (Alt Penedès),https://www.youtube.com/watch?v=DittlFvxbh8 ,41.34777690000731,1.7067197681988089,Catalunya,Carles Sanahuja: cançó d'autor,1.0
54,54,Xavier Mata,Hip hop,El Prat del Llobregat (Baix Llobregat),https://www.youtube.com/watch?v=1Lt4ttrf3QI,41.33232811907639,2.0987186292825752,Catalunya,Xavier Mata: Hip hop,1.0
55,55,Lluc ( a palo seco ),Música d'autor,Sant Carles de la Ràpita (Montsià),None,40.62167378536037,0.5981541572621719,Catalunya,Lluc ( a palo seco ): Música d'autor,1.0
56,56,Gran Bèstia,Pop espacial,Barcelona (Garraf),None,41.3898820062022,2.1789303608478394,Catalunya,Gran Bèstia: Pop espacial,1.0
57,57,Joan Ràfols,Pop Rock,Llorenç del Penedès (Baix Penedès),None,41.290587047053606,1.5548778715117904,Catalunya,Joan Ràfols: Pop Rock,1.0
58,58,Noelia Molino,Soul,Vilafranca del Penedès (Alt Penedès),https://www.youtube.com/watch?v=SV-wu1DoJzU,41.34921739689857,1.7073476814598978,Catalunya,Noelia Molino: Soul,1.0
59,59,Delta Delta,Pop/rock alternatiu,Sant Feliu de Llobregat (Baix Llobregat),https://www.youtube.com/watch?v=RBBBjXdf6L0,41.38440121247019,2.0541631344302127,Catalunya,Delta Delta: Pop/rock alternatiu,1.0
60,60,Et-Co,Fusió,Vendrell (Baix Penedès),https://www.youtube.com/watch?v=M2XkOPZOlmw,41.220462775899385,1.5361560818665296,Catalunya,Et-Co: Fusió,1.0
61,61,MADAMME MUSTASH,POP /CANÇÓ D'AUTOR,ROSES (Alt Empordà),https://www.youtube.com/watch?v=eI3kJzf_Nog,42.2693855690588,3.18222426734759,Catalunya,MADAMME MUSTASH: POP /CANÇÓ D'AUTOR,1.0
62,62,KARLA AMB K,Indie-Pop Electrònic,Barcelona (Barcelonès),https://www.youtube.com/watch?v=qnI-oXlIYvQ,41.383115533331896,2.1871661683766432,Catalunya,KARLA AMB K: Indie-Pop Electrònic,1.0
63,63,Aiguadolça,Rock pop,Sitges (Garraf),https://www.youtube.com/watch?v=pyfMt1Whg9U&feature=youtu.be,41.23693949910428,1.8318075076460083,Catalunya,Aiguadolça: Rock pop,1.0
64,64,Rostoll,Hardcore Punk,Lleida (Segrià),https://www.youtube.com/watch?v=caU_MUmxzGc,41.62429950687878,0.632939648594324,Catalunya,Rostoll: Hardcore Punk,1.0
65,65,Ideal,Pop rock catala,Palafrugell  (Baix Empordà),https://youtu.be/oUs8lQTz5nE,41.925049219266775,3.162271487054467,Catalunya,Ideal: Pop rock catala,1.0
66,66,Enric Casado,Canta Autor,Sueca (Ribera Baixa),None,39.210987173497564,-0.30810606226823944,Comunitat Valenciana,Enric Casado: Canta Autor,2.0
67,67,La Ruba,Pop / Rock / Indie,Gandia (Safor),https://www.youtube.com/watch?v=3WijXH5veIQ,38.97261171420706,-0.1731194569005359,Comunitat Valenciana,La Ruba: Pop / Rock / Indie,2.0
68,68,Iglú,Indie Pop,Barcelona (Barcelonès),https://www.youtube.com/watch?v=WYfXfG4jKYQ,41.38885829107974,2.1828328024640946,Catalunya,Iglú: Indie Pop,1.0
69,69,María González,Pop/pop-rock/indie,L'Hospitalet de Llobregat (Baix Llobregat),None,41.36540411743869,2.1078778222098205,Catalunya,María González: Pop/pop-rock/indie,1.0
70,70,Sebastià López Ventura,Pop/ rock,Sils (Gironès),None,41.81276484651014,2.7503529619557634,Catalunya,Sebastià López Ventura: Pop/ rock,1.0
71,71,Ismael Dueñas,Pop/folk acústic,Badalona (Barcelonès),https://www.youtube.com/watch?v=Q84wqOkYYFw,41.45777459384248,2.2500792039765773,Catalunya,Ismael Dueñas: Pop/folk acústic,1.0
72,72,MARC CORTADELLES,"Rock, Blues",Reus (Baix Camp),https://www.youtube.com/watch?v=XihX2wNRp4Y,41.15617483232259,1.1079479065005189,Catalunya,"MARC CORTADELLES: Rock, Blues",1.0
73,73,SATURN,Pop rock estel·lar,Barcelona (Barcelonès),None,41.39090897214767,2.1860147365248443,Catalunya,SATURN: Pop rock estel·lar,1.0
74,74,Massiva Cosmo,Rock / Metall Alternatiu,Cubelles (Garraf),https://www.youtube.com/watch?v=zK48dmzNphE,41.217020529780015,1.675610670700837,Catalunya,Massiva Cosmo: Rock / Metall Alternatiu,1.0
75,75,Silah Sirius,Reggae,"Barcelona, Bonastre (Baix Penedès)",None,41.38123084574972,2.1656008957054915,Catalunya,Silah Sirius: Reggae,1.0
76,76,Opció 2,Rockountryfolk acústic o alguna cosa així,Barcelona (Barcelonès),https://www.youtube.com/watch?v=kDoewivrJVU,41.384503308887425,2.1813665980087253,Catalunya,Opció 2: Rockountryfolk acústic o alguna cosa així,1.0
77,77,Remei de Ca la Fresca,Dancehall futurista o el que tu vulguis.,Arbúcies (Selva),None,41.81679255455408,2.5206899348538356,Catalunya,Remei de Ca la Fresca: Dancehall futurista o el que tu vulguis.,1.0
78,78,KGB / Kevin Gomez Bove,pop,tarragona  (Tarragonès),https://www.youtube.com/watch?v=P5mqugcz2Ag,41.125329671577106,1.2603287195894821,Catalunya,KGB / Kevin Gomez Bove: pop,1.0
79,79,Eulàlia Guntin Xirinachs,pop-rock intimista,El Prat de Llobregat (Baix Llobregat),None,41.33168427241579,2.0964555565473466,Catalunya,Eulàlia Guntin Xirinachs: pop-rock intimista,1.0
80,80,Projecte Júlia,pop rock,Vilafranca del Penedès (Alt Penedès),None,41.347417265112405,1.7019744899204743,Catalunya,Projecte Júlia: pop rock,1.0
81,81,Groc,"Pop, Indie-Pop, Indie",Barcelona (Barcelonès),https://www.youtube.com/watch?v=rQ2YdX1IsmU,41.38752499873663,2.1847348094478733,Catalunya,"Groc: Pop, Indie-Pop, Indie",1.0
82,82,Noel Biniés,"folkpoprockalternatiu , cançó d'autor",Hostalric (Selva),https://www.youtube.com/user/noelt8xx,41.75263364713732,2.6376560381020853,Catalunya,"Noel Biniés: folkpoprockalternatiu , cançó d'autor",1.0
83,83,OnzePM,Indie Rock,Barcelona (Barcelonès),https://www.youtube.com/watch?v=CUrkACOfjsA,41.38977739512285,2.1872966719813873,Catalunya,OnzePM: Indie Rock,1.0
84,84,Bouzouki dance BETA,Pink punk,Barcelona (Barcelonès),https://www.youtube.com/watch?v=_dwc3N0hINI,41.39118463313665,2.1802728635888533,Catalunya,Bouzouki dance BETA: Pink punk,1.0
85,85,Enric EZ,"Cantautor, mediterrani, pop, àfrica, jazz, soul. Life music",Santa Maria de Palautordera (Vallès Oriental),https://www.youtube.com/watch?v=DJ_HFjwytts,41.70255603515064,2.4518577813591294,Catalunya,"Enric EZ: Cantautor, mediterrani, pop, àfrica, jazz, soul. Life music",1.0
86,86,GUILLOLA,pop/rock alternatiu,Figueres (Alt Empordà),https://www.youtube.com/watch?v=9vQNi8v4OWg,42.273466194826106,2.9661534118143367,Catalunya,GUILLOLA: pop/rock alternatiu,1.0
87,87,EL TIO LA CARETA,ROCK ALTERNATIU,VALÈNCIA (València),None,39.474935941434595,-0.3723663595786196,Comunitat Valenciana,EL TIO LA CARETA: ROCK ALTERNATIU,2.0
88,88,Lia Sampai,Cançó d'autor,Cerdanyola del Vallès (Vallès Occidental),https://www.youtube.com/watch?v=6QFIM-iqUWg,41.49801767795361,2.146762523659902,Catalunya,Lia Sampai: Cançó d'autor,1.0
89,89,Joa Lwest,"Pop, Folk",Rubí (Vallès Occidental),None,41.496668230359155,2.0365990462718897,Catalunya,"Joa Lwest: Pop, Folk",1.0
90,90,Sempre Amunt,Pop / musica d'Autor / Rumba,Barcelona (Barcelonès),https://www.youtube.com/watch?v=XGArQD7mGDo&feature=youtu.be,41.38511243228877,2.1794588939416926,Catalunya,Sempre Amunt: Pop / musica d'Autor / Rumba,1.0
91,91,Les Buch,Punk rock,Terrassa (Vallès Occidental),https://www.youtube.com/watch?v=MVMAb5uD13Y,41.57228968571769,2.012134938111076,Catalunya,Les Buch: Punk rock,1.0
92,92,David Ràfols,Pop-Rock,Vilafranca del Penedès  (Alt Penedès),None,41.35013702758958,1.7032957717156534,Catalunya,David Ràfols: Pop-Rock,1.0
93,93,Marina Freixas,Pop intimista,Igualada (Anoia),None,41.58334307968696,1.6217290349558473,Catalunya,Marina Freixas: Pop intimista,1.0
94,94,La Corda Fluixa,Pop Folk,Puigcerdà (Cerdanya),https://www.youtube.com/watch?v=nCHFnpotxiM,42.44091487596826,1.9326689727487807,Catalunya,La Corda Fluixa: Pop Folk,1.0
95,95,LEGENDARI,Folk rock,Palau Solità i Plegamans (Vallès Occidental),https://www.youtube.com/watch?v=QpxKdWNQ8Iw,41.59215426026578,2.1878051875519096,Catalunya,LEGENDARI: Folk rock,1.0
96,96,Eva González Menal,"personal: soul, indie, acústic, música medicina, instrumental, experimental... amb ganes sempre de provar nous sons i instruments.",Ripollet (Barcelonès),https://www.youtube.com/watch?v=-QhsjAP6Uvk,41.50096082796177,2.164299970980483,Catalunya,"Eva González Menal: personal: soul, indie, acústic, música medicina, instrumental, experimental... amb ganes sempre de provar nous sons i instruments.",1.0
97,97,Sequoia,Indie Folk,Barcelona (Barcelonès),https://www.youtube.com/watch?v=JVGNyPv_6ko,41.38476687874643,2.1782139783568493,Catalunya,Sequoia: Indie Folk,1.0
98,98,Punkgrossos,PunkRock,Barcelona (Barcelonès),None,41.38776541844138,2.184020631749473,Catalunya,Punkgrossos: PunkRock,1.0
99,99,FA1NA,Fusió de rumba catalana i flamenca,Mollerussa (Pla d'Urgell),https://www.youtube.com/watch?v=rAHMKxRhGng,41.638500586740726,0.9042804665145624,Catalunya,FA1NA: Fusió de rumba catalana i flamenca,1.0
100,100,Carla Font,Pop,Lleida (Segrià),https://www.youtube.com/watch?v=iwpYLfVrmUM&feature=youtu.be,41.62093337535487,0.6294799978060961,Catalunya,Carla Font: Pop,1.0
101,101,David Martí,Pop d'autor,Castellfollit del Boix  (Bages),None,41.67415662486271,1.6936990602225985,Catalunya,David Martí: Pop d'autor,1.0
102,102,Efímer,Pop,Vic (Osona),https://www.youtube.com/channel/UCd1e7TjzZGHbriMGkcbVslQ/videos,41.93154138152731,2.262655439063159,Catalunya,Efímer: Pop,1.0
103,103,Màresan,Pop-Folk,La Ràpita (Montsià),https://www.youtube.com/watch?v=DxyZHRPENcU&t=108s,39.91454570493741,-0.23415668061119838,Comunitat Valenciana,Màresan: Pop-Folk,2.0
104,104,Laura Esparza i Carlos Esteban,Indie folk,València (València),https://www.youtube.com/watch?v=q6bNMrhsAeQ,39.475862598906026,-0.3694335686274315,Comunitat Valenciana,Laura Esparza i Carlos Esteban: Indie folk,2.0
105,105,Marco Pompero,Indie folk mediterrani,Alcoi (Alcoi),https://www.youtube.com/watch?v=bQj2SSUvaG8,38.70430915850513,-0.4723995548773754,Comunitat Valenciana,Marco Pompero: Indie folk mediterrani,2.0
106,106,Laura Jareño,"bossa nova, cantautor,  pop",Santa Coloma de Gramenet (Barcelonès),None,41.45215256563339,2.217796401512599,Catalunya,"Laura Jareño: bossa nova, cantautor,  pop",1.0
107,107,Estepes,Rockelectrocústic,Lloseta (Raiguer),None,39.726233515626184,2.875548889079454,Illes Balears,Estepes: Rockelectrocústic,3.0
108,108,Maüpas,Cançó d'autor,Sabadell (Barcelonès),https://www.youtube.com/watch?v=jSWrWouRbAg&feature=youtu.be,41.542384505190185,2.1221407356341095,Catalunya,Maüpas: Cançó d'autor,1.0
109,109,Saüc en flor,Folk silvestre,Pineda de Mar (Barcelonès),https://www.youtube.com/watch?v=PcAQooSjS-o&t=5s,41.63520807901296,2.694668758646167,Catalunya,Saüc en flor: Folk silvestre,1.0
110,110,Vèrtex Buit,Cançó d'autor / Rock alternatiu,Golmés (Pla d'Urgell),None,41.63584739527175,0.9331140753706012,Catalunya,Vèrtex Buit: Cançó d'autor / Rock alternatiu,1.0
111,111,NICÒMAC,Rock simfònic,Badalona (Barcelonès),None,41.450041691149295,2.249766739870617,Catalunya,NICÒMAC: Rock simfònic,1.0
112,112,Kàfkia,Rock alternatiu,La Cellera de Ter (Selva),https://www.youtube.com/watch?v=cTfWMNNQewc,41.978462277376096,2.6251788086736143,Catalunya,Kàfkia: Rock alternatiu,1.0
113,113,Ego,"Rock, punk, funk, electrònica",Lleida (Segrià),https://www.youtube.com/watch?v=CJAwpfJz1co,41.62303601071093,0.6268614852644943,Catalunya,"Ego: Rock, punk, funk, electrònica",1.0
114,114,PROJECTE MAU,Rock - Folck,SARRIÀ DE TER - (GIRONA) (Gironès),None,42.01862900745521,2.824759227131435,Catalunya,PROJECTE MAU: Rock - Folck,1.0
115,115,Koalanú,Rock Indie Reggae,Figueres (Alt Empordà),None,42.27421279591969,2.9679059907214573,Catalunya,Koalanú: Rock Indie Reggae,1.0
116,116,Hugkakke,música urbana,Igualada (Anoia),https://www.youtube.com/watch?v=0tGL_gBGls8,41.585765163225744,1.6185725231452641,Catalunya,Hugkakke: música urbana,1.0
117,117,Massaviu,Pop alternatiu i música urbana,Cardedeu i Sant Esteve de Palautordera (Vallès Oriental),https://www.youtube.com/channel/UCh1_-QpgzIdG-3QfCMfZi6w,41.63997416142105,2.3623282730895383,Catalunya,Massaviu: Pop alternatiu i música urbana,1.0
118,118,BELZONI,Pop-Rock,El Masnou (Maresme),None,41.48031456568962,2.317584290613696,Catalunya,BELZONI: Pop-Rock,1.0
119,119,Kim the Mowgli,Pop Rock,Andorra la vella (Baix Camp),None,42.50898884353591,1.5239206401539285,AndorralaVella,Kim the Mowgli: Pop Rock,4.0
120,120,SKÉLETORS,Rock-Metall,Girona (Gironès),https://www.youtube.com/watch?v=52r-wvlDraw,41.9865429371806,2.826425747507212,Catalunya,SKÉLETORS: Rock-Metall,1.0
121,121,Malson Atmosfèric,"Rap, Trap, Hip/Hop, Urban",Sant Julià de Ramis (Gironès),https://www.youtube.com/watch?v=Q2aeYV3Xucs,42.028302871120914,2.857847603366957,Catalunya,"Malson Atmosfèric: Rap, Trap, Hip/Hop, Urban",1.0
122,122,Pol Bordas,Música Urbana,Girona (Gironès),https://www.youtube.com/watch?v=FOZrYjFAidU,41.98091510847478,2.820222391122665,Catalunya,Pol Bordas: Música Urbana,1.0
123,123,Saüc,Rock / Rock dur / Metal alternatiu,Balaguer (Noguera),https://www.youtube.com/watch?v=c-KH8tAP0I0,41.79634274578241,0.8064657059783014,Catalunya,Saüc: Rock / Rock dur / Metal alternatiu,1.0
124,124,Sabana,Pop,Granollers (Vallès Oriental),https://youtu.be/lSzoXbo4VSs,41.608538161828136,2.296934901881308,Catalunya,Sabana: Pop,1.0
125,125,Tomeu Juan Fuster,Cançó d'autor,Palma de Mallorca (Palma),https://www.youtube.com/playlist?list=PLIHZApSkCjI2gbrXGX0sEdxAD38LZ5qPv,39.570383565728406,2.658086692676174,Illes Balears,Tomeu Juan Fuster: Cançó d'autor,3.0
126,126,WAN HU,Pop-Folk-Indie,Barcelona (Barcelonès),https://www.youtube.com/watch?v=NRjW4ifxbRY,41.387524102551744,2.1849179951690427,Catalunya,WAN HU: Pop-Folk-Indie,1.0
127,127,Marian,Pop-rock.,Santa Eulàlia de Riuprimer (Osona),https://www.youtube.com/watch?v=weOLhEcIc-0,41.91740505816483,2.1903609283992176,Catalunya,Marian: Pop-rock.,1.0
128,128,Lalo Garau,Pop,Palma (Palma),https://www.youtube.com/watch?v=cG3wAXFYALU,39.570830702389976,2.651493198009534,Illes Balears,Lalo Garau: Pop,3.0
129,129,Saó,Fusió de músiques brasileres i llatines en català,Barcelona (Barcelonès),https://www.youtube.com/channel/UCPUd7QF_Jj9Xm1kqDZ2txrQ,41.38762619794793,2.18164775897264,Catalunya,Saó: Fusió de músiques brasileres i llatines en català,1.0
130,130,Abast,Pop/Música de cantautor,Barcelona (Barcelonès),None,41.38557909309589,2.182149092582121,Catalunya,Abast: Pop/Música de cantautor,1.0
131,131,Cuarto Segunda,Rap amb banda,"Lleida, Les Franqueses del Vallès, l'Ametlla i La Garriga. (Vallès Oriental)",https://www.youtube.com/watch?v=4_83piwLTzw,41.62145356984774,0.6344129828094353,Catalunya,Cuarto Segunda: Rap amb banda,1.0
132,132,Terra Ferma,"Ska Fusió, mescla de l'ska més clàssic amb rock, reggae i hip-hop.",Reus (Baix Camp),https://www.youtube.com/watch?v=tA8Ybx56aGQ,41.158119300378665,1.1121758081108826,Catalunya,"Terra Ferma: Ska Fusió, mescla de l'ska més clàssic amb rock, reggae i hip-hop.",1.0
133,133,Musclu,Pop electrònic,Barcelona (Barcelonès),https://www.youtube.com/watch?v=Wc4UkCt8xuI,41.38680666582382,2.183891715279219,Catalunya,Musclu: Pop electrònic,1.0
134,134,Pol Cortés,Pop,Sant Cugat del Vallès - Barcelona (Barcelonès),None,41.48274557545867,2.08788909233517,Catalunya,Pol Cortés: Pop,1.0
135,135,Sense Nom,Pop - Rock - Rumba catalana,Cornellà de Llobregat (Baix Llobregat),https://www.youtube.com/watch?v=AJ6WYgl16Xc,41.36176096845134,2.080049149495337,Catalunya,Sense Nom: Pop - Rock - Rumba catalana,1.0
136,136,Cala Joia,Cantautor,Ciutadella de Menorca (Menorca),https://www.youtube.com/watch?v=hSz9IsC2TLA,40.004133134953356,3.837562848020037,Illes Balears,Cala Joia: Cantautor,3.0
137,137,Cat Vicens,Folk acústic/cançó d'autor,Viladecans (Baix Llobregat),None,41.32444430853474,2.023074229699825,Catalunya,Cat Vicens: Folk acústic/cançó d'autor,1.0
138,138,MON,Pop-Rock,Blanes (Selva),None,41.67720532925446,2.798710522442694,Catalunya,MON: Pop-Rock,1.0
