,Unnamed: 0,NomdelGrup,Estil,Poblacio,URLvideoYoutube,lat,lon,Region,Nom_Estil,NumRegio
0,0,Abril & Sambola,"Pop d’autor, folk, soul",(Barcelonès),https://youtu.be/he8JD6TBtxw,41.41618961699111,2.1722739564277007,Catalunya,"Abril & Sambola: Pop d’autor, folk, soul",1.0
1,1,Oxitocina,World Music,Terrassa (Vallès Occidental),None,41.56892686129157,2.0200210102829805,Catalunya,Oxitocina: World Music,1.0
2,2,Figaflow,"pop, electrònica, folk",Santpedor (Bages),None,41.78817313906346,1.846799420360243,Catalunya,"Figaflow: pop, electrònica, folk",1.0
3,3,E.M.P.E.,Bedroom Pop,(Vallès Oriental),None,41.65041923184266,2.332648364483975,Catalunya,E.M.P.E.: Bedroom Pop,1.0
4,4,Reïna,Pop,Manacor (Llevant),None,39.574338468020976,3.215210988800772,Illes Balears,Reïna: Pop,3.0
5,5,Joan Delapse,Acústic,Granollers (Vallès Oriental),None,41.6091064304599,2.2888044062183033,Catalunya,Joan Delapse: Acústic,1.0
6,6,LA MODEL,Indie Pop,Barcelona (Barcelonès),None,41.39189774138327,2.186911734067708,Catalunya,LA MODEL: Indie Pop,1.0
7,7,J del Fosc,Cantautor,Barcelona (Barcelonès),None,41.38866053898537,2.1844322853727247,Catalunya,J del Fosc: Cantautor,1.0
8,8,Joan Blau,Cançó d'autor,Balaguer (Noguera),https://youtu.be/2i8Qxfc7ONU,41.799173259624446,0.8060799890552508,Catalunya,Joan Blau: Cançó d'autor,1.0
9,9,Estiula,Pop-rock,Ripol (Ripollès),https://www.youtube.com/watch?v=yuWuTRi2OMk,42.19639,2.30334,Comunitat Valenciana,Estiula: Pop-rock,2.0
10,10,Bataille,Cançó d´autor,Alaró (Mallorca)  (Raiguer),None,39.71520916555545,2.791215011331972,Illes Balears,Bataille: Cançó d´autor,3.0
11,11,paunezz,Pop Folk / Electrònica,Igualada (Anoia),None,41.584419536291264,1.6237155322779477,Catalunya,paunezz: Pop Folk / Electrònica,1.0
12,12,Impaktats,Rap electrònic,Botarell / Les Borges del Camp (Baix Camp),https://www.youtube.com/watch?v=uNWPliAIbwg,41.17208684112679,1.0239954330749796,Catalunya,Impaktats: Rap electrònic,1.0
13,13,Jamaleònics,Mestissatge,Sagunt (Camp de Morvedre),https://www.youtube.com/watch?v=KGr0vCKV-ek,39.680980422223456,-0.2684949025294759,Comunitat Valenciana,Jamaleònics: Mestissatge,2.0
14,14,Plombiers,Indie-Pop,Reus (Baix Camp),None,41.15790571987728,1.1163862631304684,Catalunya,Plombiers: Indie-Pop,1.0
15,15,Maria Dolors,Rock,Lloret de Mar (Selva),https://www.youtube.com/watch?v=JqUPWRdaU0c,41.69990119624026,2.8400371772621025,Catalunya,Maria Dolors: Rock,1.0
16,16,Escarràs,"Mestissatge, ska-fusió",Mallorca (Pla de Mallorca),https://youtu.be/oMCt7QiSgNw,39.61911924971012,2.8897162029761296,Illes Balears,"Escarràs: Mestissatge, ska-fusió",3.0
17,17,ÒRBITES,indie rock,València (Horta Oest),None,39.47404272626344,-0.3729827156440001,Comunitat Valenciana,ÒRBITES: indie rock,2.0
18,18,Zèfir,Indie Pop,El Vendrell (Baix Penedès),https://www.youtube.com/watch?v=kUAG2zaMbQI,41.220220228247214,1.5426817090026863,Catalunya,Zèfir: Indie Pop,1.0
19,19,Irieix,Pop contemporani,granollers (Vallès Oriental),https://www.youtube.com/watch?v=7_1-fEEK90o ,41.61484045097458,2.290592845220573,Catalunya,Irieix: Pop contemporani,1.0
20,20,NINOT,Synth-pop,Sitges (Garraf),https://www.youtube.com/watch?v=c43kNX5r-4M,41.24095492382217,1.8323027445809483,Catalunya,NINOT: Synth-pop,1.0
21,21,Ingrid,Pop-folk,Vilanova i la Geltrú (Garraf),None,41.22537407787145,1.734403115986409,Catalunya,Ingrid: Pop-folk,1.0
22,22,QANARUSA,FOLK MALLORQUÍ,SENCELLES (Pla de Mallorca),https://www.youtube.com/watch?v=9N8WVukrK_E&t=9s,39.64925149517601,2.9071316545046257,Illes Balears,QANARUSA: FOLK MALLORQUÍ,3.0
23,23,Palmira,Pop Rock,Barcelona (Barcelonès),http://youtube.com/watch?v=oG32pvS2PCI,41.2,2.2,Catalunya,Palmira: Pop Rock,1.0
24,24,Stela Nur,Cançó d'autor,Portbou (Alt Empordà),https://youtu.be/p3zOY0k7r20,42.43647451455357,3.164919287131147,Catalunya,Stela Nur: Cançó d'autor,1.0
25,25,Aina Palà,Pop,Sant Salvador de Guardiola (Bages),None,41.682267006661405,1.769555630296886,Catalunya,Aina Palà: Pop,1.0
26,26,Laura Centellas,Cançó d'autor / Pop melòdic,Vic (Osona),https://www.youtube.com/channel/UCJkGuWDz2lRbWkeAVRY1veA,41.938226802437,2.2557198857909766,Catalunya,Laura Centellas: Cançó d'autor / Pop melòdic,1.0
27,27,Lluna Plena,Pop-rock,Igualada (Anoia),https://youtu.be/bxksKGbewis,41.58361339542861,1.617891492376983,Catalunya,Lluna Plena: Pop-rock,1.0
28,28,Susannes,cantautora rural,Valls (Alt Camp),https://www.youtube.com/watch?v=D2e9CNgXNC8,41.29290655364362,1.2505280878550842,Catalunya,Susannes: cantautora rural,1.0
29,29,Golíat,Post-tot,Granollers (Vallès Oriental),https://www.youtube.com/watch?v=IAroiXy1MC4,41.61564408236168,2.293817333024708,Catalunya,Golíat: Post-tot,1.0
30,30,Cop de Gràcia,Thrash Metal,Girona (Gironès),https://youtu.be/bgGduKfp3ng,41.98797433646354,2.822883895646324,Catalunya,Cop de Gràcia: Thrash Metal,1.0
31,31,La mangrana,"Punk, Garage, postpunk, Ebrenc",Deltebre (Baix Ebre),https://www.youtube.com/watch?v=i4pMSn39dIw,40.72792401808822,0.7338350040369875,Catalunya,"La mangrana: Punk, Garage, postpunk, Ebrenc",1.0
32,32,Metacrani,Heavy Metal,Barcelona i comarques (Barcelonès),None,41.38387374105999,2.1811376499173485,Catalunya,Metacrani: Heavy Metal,1.0
33,33,Aeroperro,Indie,Esplugues de Llobregat (Baix Llobregat),https://www.youtube.com/watch?v=9oREBh9iI8s,41.385659263191,2.090870770324936,Catalunya,Aeroperro: Indie,1.0
34,34,L'enemic,Pop/Rock,Manlleu (Osona),https://www.youtube.com/watch?v=1BIqSzgE13w,42.00102893472972,2.291597352276611,Catalunya,L'enemic: Pop/Rock,1.0
35,35,Paupiripau,Sí,Parlavà (Baix Empordà),https://www.youtube.com/watch?v=E2NwZtvqbRg,42.02350299880594,3.0349132519313153,Catalunya,Paupiripau: Sí,1.0
36,36,Bona Ventura,Disco-Pop,"Pina, Santa Maria del Camí, Esporles i Son Serra de Marina (Pla de Mallorca)",https://youtu.be/JO_fDelmWfk,39.69,2.78,Comunitat Valenciana,Bona Ventura: Disco-Pop,2.0
37,37,Lles,indie-pop,Collbató (Baix Llobregat),None,41.57653438048075,1.8356524352624386,Catalunya,Lles: indie-pop,1.0
38,38,MIOPS,Pop-Rock,Moià (Moianès) (Bages),https://www.youtube.com/watch?v=LSkw6mgz-CQ&feature=youtu.be,41.81704089740346,2.0982959490747373,Catalunya,MIOPS: Pop-Rock,1.0
39,39,Lxs Duendes del Parque,Cansautores incendiàries,Arbúcies (Selva),https://www.youtube.com/watch?v=ru9ho_lg_RE,41.82431559540688,2.5148038859783157,Catalunya,Lxs Duendes del Parque: Cansautores incendiàries,1.0
40,40,Miquel Gomà,rock,Sabadell (Vallès Occidental),https://www.youtube.com/watch?v=mj6zl_obrLQ,41.54387577575374,2.1205655708900593,Catalunya,Miquel Gomà: rock,1.0
41,41,Som Guineus,Rock català,Badalona (Barcelonès),https://www.youtube.com/watch?v=0WlJLixTkf8,41.452801923761506,2.2576201119099397,Catalunya,Som Guineus: Rock català,1.0
42,42,Rels,Rock,Eivissa (Eivissa),None,38.978607777676054,1.4268289970393617,Illes Balears,Rels: Rock,3.0
43,43,Microhomes,Pop-electrònic,Barcelona (Barcelonès),https://youtu.be/bjlU3sWBp6U,41.390380063364844,2.1850292775100693,Catalunya,Microhomes: Pop-electrònic,1.0
44,44,Falcon & Firkin,Pop,Manresa (Bages),https://www.youtube.com/watch?v=T4V6L86JQz4,41.73675138459918,1.8344465748908847,Catalunya,Falcon & Firkin: Pop,1.0
45,45,Verlaat,Pop,Maó (Menorca),https://www.youtube.com/watch?v=FWShLqf2yPM&feature=youtu.be,39.89024646394142,4.265109602370492,Illes Balears,Verlaat: Pop,3.0
46,46,Kòt Lapè,Cançó d'autor amb banda,Barcelona (Barcelonès),https://www.youtube.com/watch?v=N3B-ifMhEHw,41.384699068827146,2.1786118889452752,Catalunya,Kòt Lapè: Cançó d'autor amb banda,1.0
47,47,El Cantautoret,"Autor, Pop/rock",Sueca (Ribera Baixa),https://www.youtube.com/watch?v=k6KC0Fz4oCA,39.208164722619884,-0.3043532969246321,Comunitat Valenciana,"El Cantautoret: Autor, Pop/rock",2.0
48,48,SIMI5,Sense definir,Esparreguera (Baix Llobregat),None,41.54568418096104,1.87932537304586,Catalunya,SIMI5: Sense definir,1.0
49,49,Projecte Castor,mestissatge,Vinaròs (Baix Maestrat),https://www.youtube.com/watch?v=tzE2cef32OM&list=PLhw6b1QRaV8vlhXBLjhYpRlb_z0dQjgn_,40.479893840831735,0.4810588140819135,Comunitat Valenciana,Projecte Castor: mestissatge,2.0
50,50,"Yagmi,The New God",Trap,Terrassa (Vallès Occidental),https://www.youtube.com/channel/UCjhl4DEVlJZg8ejtxuUcxZw?view_as=subscriber,41.570952249911464,2.0143585070197076,Catalunya,"Yagmi,The New God: Trap",1.0
51,51,Revolusonats,Hip hop fusió,Terrassa (Vallès Occidental),https://www.youtube.com/watch?v=aRvzrjrz4vY,41.56964069091195,2.013440103539703,Catalunya,Revolusonats: Hip hop fusió,1.0
52,52,Mama Dousha,Pop,Barcelona (Barcelonès),https://youtu.be/h_bUQCJGwK0,41.3834503730807,2.1794724898578557,Catalunya,Mama Dousha: Pop,1.0
53,53,Carles Sanahuja,cançó d'autor,Vilafranca del Penedès (Alt Penedès),https://www.youtube.com/watch?v=DittlFvxbh8 ,41.349226891971014,1.7016048401496697,Catalunya,Carles Sanahuja: cançó d'autor,1.0
54,54,Xavier Mata,Hip hop,El Prat del Llobregat (Baix Llobregat),https://www.youtube.com/watch?v=1Lt4ttrf3QI,41.332641380865105,2.1034654254890146,Catalunya,Xavier Mata: Hip hop,1.0
55,55,Lluc ( a palo seco ),Música d'autor,Sant Carles de la Ràpita (Montsià),None,40.622825807794754,0.5950584632093022,Catalunya,Lluc ( a palo seco ): Música d'autor,1.0
56,56,Gran Bèstia,Pop espacial,Barcelona (Garraf),https://youtu.be/1cGwoPhfeJk,41.38524743198566,2.1787062109810504,Catalunya,Gran Bèstia: Pop espacial,1.0
57,57,Joan Ràfols,Pop Rock,Llorenç del Penedès (Baix Penedès),None,41.29015867986977,1.560526438463435,Catalunya,Joan Ràfols: Pop Rock,1.0
58,58,Noelia Molino,Soul,Vilafranca del Penedès (Alt Penedès),https://www.youtube.com/watch?v=SV-wu1DoJzU,41.347373304354,1.708013793169038,Catalunya,Noelia Molino: Soul,1.0
59,59,Delta Delta,Pop/rock alternatiu,Sant Feliu de Llobregat (Baix Llobregat),https://www.youtube.com/watch?v=RBBBjXdf6L0,41.39009072458757,2.0502260561654957,Catalunya,Delta Delta: Pop/rock alternatiu,1.0
60,60,Et-Co,Fusió,Vendrell (Baix Penedès),https://www.youtube.com/watch?v=M2XkOPZOlmw,41.227178833727635,1.5391111848385228,Catalunya,Et-Co: Fusió,1.0
61,61,MADAMME MUSTASH,POP /CANÇÓ D'AUTOR,ROSES (Alt Empordà),https://www.youtube.com/watch?v=eI3kJzf_Nog,42.2634175111134,3.1852147177409056,Catalunya,MADAMME MUSTASH: POP /CANÇÓ D'AUTOR,1.0
62,62,KARLA AMB K,Indie-Pop Electrònic,Barcelona (Barcelonès),https://www.youtube.com/watch?v=qnI-oXlIYvQ,41.38463017240219,2.1863341707270454,Catalunya,KARLA AMB K: Indie-Pop Electrònic,1.0
63,63,Aiguadolça,Rock pop,Sitges (Garraf),https://www.youtube.com/watch?v=pyfMt1Whg9U&feature=youtu.be,41.24015792913276,1.8302558869959158,Catalunya,Aiguadolça: Rock pop,1.0
64,64,Rostoll,Hardcore Punk,Lleida (Segrià),https://www.youtube.com/watch?v=caU_MUmxzGc,41.619226402054316,0.6323853509607373,Catalunya,Rostoll: Hardcore Punk,1.0
65,65,Ideal,Pop rock catala,Palafrugell  (Baix Empordà),https://youtu.be/oUs8lQTz5nE,41.928001663387114,3.168374710537097,Catalunya,Ideal: Pop rock catala,1.0
66,66,Enric Casado,Canta Autor,Sueca (Ribera Baixa),https://youtu.be/C3FzUFY61IE,39.20573969738428,-0.30505016879490365,Comunitat Valenciana,Enric Casado: Canta Autor,2.0
67,67,La Ruba,Pop / Rock / Indie,Gandia (Safor),https://www.youtube.com/watch?v=3WijXH5veIQ,38.973466936035365,-0.17558561623332897,Comunitat Valenciana,La Ruba: Pop / Rock / Indie,2.0
68,68,Iglú,Indie Pop,Barcelona (Barcelonès),https://www.youtube.com/watch?v=WYfXfG4jKYQ,41.38525640136007,2.185198890889635,Catalunya,Iglú: Indie Pop,1.0
69,69,María González,Pop/pop-rock/indie,L'Hospitalet de Llobregat (Baix Llobregat),None,41.362485843165686,2.1054275990972835,Catalunya,María González: Pop/pop-rock/indie,1.0
70,70,Sebastià López Ventura,Pop/ rock,Sils (Gironès),None,41.816082324817735,2.748390737567729,Catalunya,Sebastià López Ventura: Pop/ rock,1.0
71,71,Ismael Dueñas,Pop/folk acústic,Badalona (Barcelonès),https://www.youtube.com/watch?v=Q84wqOkYYFw,41.45399522802672,2.2555324500571627,Catalunya,Ismael Dueñas: Pop/folk acústic,1.0
72,72,MARC CORTADELLES,"Rock, Blues",Reus (Baix Camp),https://www.youtube.com/watch?v=XihX2wNRp4Y,41.158409788938066,1.1145372391745327,Catalunya,"MARC CORTADELLES: Rock, Blues",1.0
73,73,SATURN,Pop rock estel·lar,Barcelona (Barcelonès),None,41.38644339431472,2.185575862060738,Catalunya,SATURN: Pop rock estel·lar,1.0
74,74,Massiva Cosmo,Rock / Metall Alternatiu,Cubelles (Garraf),https://www.youtube.com/watch?v=zK48dmzNphE,41.2106944116164,1.6773268465641162,Catalunya,Massiva Cosmo: Rock / Metall Alternatiu,1.0
75,75,Silah Sirius,Reggae,"Barcelona, Bonastre (Baix Penedès)",None,41.38377417418913,2.168314927579389,Catalunya,Silah Sirius: Reggae,1.0
76,76,Opció 2,Rockountryfolk acústic o alguna cosa així,Barcelona (Barcelonès),https://www.youtube.com/watch?v=kDoewivrJVU,41.39200534825843,2.1844542562565614,Catalunya,Opció 2: Rockountryfolk acústic o alguna cosa així,1.0
77,77,Remei de Ca la Fresca,Dancehall futurista o el que tu vulguis.,Arbúcies (Selva),https://youtu.be/rjEfCQPVM3A,41.8235806140299,2.5183518411027497,Catalunya,Remei de Ca la Fresca: Dancehall futurista o el que tu vulguis.,1.0
78,78,KGB / Kevin Gomez Bove,pop,tarragona  (Tarragonès),https://www.youtube.com/watch?v=P5mqugcz2Ag,41.12610001210521,1.263299506538881,Catalunya,KGB / Kevin Gomez Bove: pop,1.0
79,79,Eulàlia Guntin Xirinachs,pop-rock intimista,El Prat de Llobregat (Baix Llobregat),https://youtu.be/-KUi8EIz53s,41.32803922827214,2.0957138271362803,Catalunya,Eulàlia Guntin Xirinachs: pop-rock intimista,1.0
80,80,Projecte Júlia,pop rock,Vilafranca del Penedès (Alt Penedès),https://youtu.be/qiIQ43xO1Vo,41.35294555185277,1.7037005615232754,Catalunya,Projecte Júlia: pop rock,1.0
81,81,Groc,"Pop, Indie-Pop, Indie",Barcelona (Barcelonès),https://www.youtube.com/watch?v=rQ2YdX1IsmU,41.391068311333626,2.1828587787000453,Catalunya,"Groc: Pop, Indie-Pop, Indie",1.0
82,82,Noel Biniés,"folkpoprockalternatiu , cançó d'autor",Hostalric (Selva),https://www.youtube.com/user/noelt8xx,41.74655728021939,2.6355315940534947,Catalunya,"Noel Biniés: folkpoprockalternatiu , cançó d'autor",1.0
83,83,OnzePM,Indie Rock,Barcelona (Barcelonès),https://www.youtube.com/watch?v=CUrkACOfjsA,41.39243616542083,2.1819644255407087,Catalunya,OnzePM: Indie Rock,1.0
84,84,Bouzouki dance BETA,Pink punk,Barcelona (Barcelonès),https://www.youtube.com/watch?v=_dwc3N0hINI,41.39268804946843,2.1805033556070486,Catalunya,Bouzouki dance BETA: Pink punk,1.0
85,85,Enric EZ,"Cantautor, mediterrani, pop, àfrica, jazz, soul. Life music",Santa Maria de Palautordera (Vallès Oriental),https://www.youtube.com/watch?v=DJ_HFjwytts,41.702685498491974,2.4493593427512432,Catalunya,"Enric EZ: Cantautor, mediterrani, pop, àfrica, jazz, soul. Life music",1.0
86,86,GUILLOLA,pop/rock alternatiu,Figueres (Alt Empordà),https://www.youtube.com/watch?v=9vQNi8v4OWg,42.27183723050702,2.9730146326575606,Catalunya,GUILLOLA: pop/rock alternatiu,1.0
87,87,EL TIO LA CARETA,ROCK ALTERNATIU,VALÈNCIA (València),https://youtu.be/8n8np5VKKco,39.4768633325558,-0.37114741146779995,Comunitat Valenciana,EL TIO LA CARETA: ROCK ALTERNATIU,2.0
88,88,Lia Sampai,Cançó d'autor,Cerdanyola del Vallès (Vallès Occidental),https://www.youtube.com/watch?v=6QFIM-iqUWg,41.4938898860479,2.147406680957256,Catalunya,Lia Sampai: Cançó d'autor,1.0
89,89,Joa Lwest,"Pop, Folk",Rubí (Vallès Occidental),None,41.49726214924954,2.033595661698823,Catalunya,"Joa Lwest: Pop, Folk",1.0
90,90,Sempre Amunt,Pop / musica d'Autor / Rumba,Barcelona (Barcelonès),https://www.youtube.com/watch?v=XGArQD7mGDo&feature=youtu.be,41.3863710416295,2.1856974528964455,Catalunya,Sempre Amunt: Pop / musica d'Autor / Rumba,1.0
91,91,Les Buch,Punk rock,Terrassa (Vallès Occidental),https://www.youtube.com/watch?v=MVMAb5uD13Y,41.56322421471571,2.0113080067856255,Catalunya,Les Buch: Punk rock,1.0
92,92,David Ràfols,Pop-Rock,Vilafranca del Penedès  (Alt Penedès),None,41.353086931447585,1.7023423579306383,Catalunya,David Ràfols: Pop-Rock,1.0
93,93,Marina Freixas,Pop intimista,Igualada (Anoia),https://youtu.be/mLD6-72V78M,41.58170705478008,1.6181012526840655,Catalunya,Marina Freixas: Pop intimista,1.0
94,94,La Corda Fluixa,Pop Folk,Puigcerdà (Cerdanya),https://www.youtube.com/watch?v=nCHFnpotxiM,42.43721538915717,1.9336808679796527,Catalunya,La Corda Fluixa: Pop Folk,1.0
95,95,LEGENDARI,Folk rock,Palau Solità i Plegamans (Vallès Occidental),https://www.youtube.com/watch?v=QpxKdWNQ8Iw,41.59518324685343,2.182702193735432,Catalunya,LEGENDARI: Folk rock,1.0
96,96,Eva González Menal,"personal: soul, indie, acústic, música medicina, instrumental, experimental... amb ganes sempre de provar nous sons i instruments.",Ripollet (Barcelonès),https://www.youtube.com/watch?v=-QhsjAP6Uvk,41.49973828210333,2.161444479582451,Catalunya,"Eva González Menal: personal: soul, indie, acústic, música medicina, instrumental, experimental... amb ganes sempre de provar nous sons i instruments.",1.0
97,97,Sequoia,Indie Folk,Barcelona (Barcelonès),https://www.youtube.com/watch?v=JVGNyPv_6ko,41.39141268677574,2.177691365383979,Catalunya,Sequoia: Indie Folk,1.0
98,98,Punkgrossos,PunkRock,Barcelona (Barcelonès),https://youtu.be/Dx2iwX0lueQ,41.38516116504026,2.184684388530651,Catalunya,Punkgrossos: PunkRock,1.0
99,99,FA1NA,Fusió de rumba catalana i flamenca,Mollerussa (Pla d'Urgell),https://www.youtube.com/watch?v=rAHMKxRhGng,41.642805045418896,0.8967507590172273,Catalunya,FA1NA: Fusió de rumba catalana i flamenca,1.0
100,100,Carla Font,Pop,Lleida (Segrià),https://www.youtube.com/watch?v=iwpYLfVrmUM&feature=youtu.be,41.62263334128386,0.6351732332644114,Catalunya,Carla Font: Pop,1.0
101,101,David Martí,Pop d'autor,Castellfollit del Boix  (Bages),https://youtu.be/RIjn8lepIUA,41.665938308767196,1.6865887507524255,Catalunya,David Martí: Pop d'autor,1.0
102,102,Efímer,Pop,Vic (Osona),https://www.youtube.com/channel/UCd1e7TjzZGHbriMGkcbVslQ/videos,41.93919305977758,2.2552329748818147,Catalunya,Efímer: Pop,1.0
103,103,Màresan,Pop-Folk,La Ràpita (Montsià),https://www.youtube.com/watch?v=DxyZHRPENcU&t=108s,40.6202,0.59289,Comunitat Valenciana,Màresan: Pop-Folk,2.0
104,104,Laura Esparza i Carlos Esteban,Indie folk,València (València),https://www.youtube.com/watch?v=q6bNMrhsAeQ,39.47259597293789,-0.36749585133886475,Comunitat Valenciana,Laura Esparza i Carlos Esteban: Indie folk,2.0
105,105,Marco Pompero,Indie folk mediterrani,Alcoi (Alcoi),https://www.youtube.com/watch?v=bQj2SSUvaG8,38.69919399347902,-0.47093574146954753,Comunitat Valenciana,Marco Pompero: Indie folk mediterrani,2.0
106,106,Laura Jareño,"bossa nova, cantautor,  pop",Santa Coloma de Gramenet (Barcelonès),None,41.45989866316112,2.210290041631341,Catalunya,"Laura Jareño: bossa nova, cantautor,  pop",1.0
107,107,Estepes,Rockelectrocústic,Lloseta (Raiguer),None,39.72222157718342,2.87556350879671,Illes Balears,Estepes: Rockelectrocústic,3.0
108,108,Maüpas,Cançó d'autor,Sabadell (Barcelonès),https://www.youtube.com/watch?v=jSWrWouRbAg&feature=youtu.be,41.54453382822314,2.117116436165247,Catalunya,Maüpas: Cançó d'autor,1.0
109,109,Saüc en flor,Folk silvestre,Pineda de Mar (Barcelonès),https://www.youtube.com/watch?v=PcAQooSjS-o&t=5s,41.629173986413996,2.6978336576450435,Catalunya,Saüc en flor: Folk silvestre,1.0
110,110,Vèrtex Buit,Cançó d'autor / Rock alternatiu,Golmés (Pla d'Urgell),None,41.636544215137924,0.9421028012884851,Catalunya,Vèrtex Buit: Cançó d'autor / Rock alternatiu,1.0
111,111,NICÒMAC,Rock simfònic,Badalona (Barcelonès),https://youtu.be/KySsoFsZCVk,41.44954879458391,2.2514800890779836,Catalunya,NICÒMAC: Rock simfònic,1.0
112,112,Kàfkia,Rock alternatiu,La Cellera de Ter (Selva),https://www.youtube.com/watch?v=cTfWMNNQewc,41.97718685299505,2.6276714397721994,Catalunya,Kàfkia: Rock alternatiu,1.0
113,113,Ego,"Rock, punk, funk, electrònica",Lleida (Segrià),https://www.youtube.com/watch?v=CJAwpfJz1co,41.61660749492688,0.627531170687374,Catalunya,"Ego: Rock, punk, funk, electrònica",1.0
114,114,PROJECTE MAU,Rock - Folck,SARRIÀ DE TER - (GIRONA) (Gironès),https://youtu.be/XtBVGvErBUo,42.01918987783318,2.8266675300831645,Catalunya,PROJECTE MAU: Rock - Folck,1.0
115,115,Koalanú,Rock Indie Reggae,Figueres (Alt Empordà),None,42.26911496982222,2.969208546408731,Catalunya,Koalanú: Rock Indie Reggae,1.0
116,116,Hugkakke,música urbana,Igualada (Anoia),https://www.youtube.com/watch?v=0tGL_gBGls8,41.58068232939604,1.62204194960171,Catalunya,Hugkakke: música urbana,1.0
117,117,Massaviu,Pop alternatiu i música urbana,Cardedeu i Sant Esteve de Palautordera (Vallès Oriental),https://www.youtube.com/channel/UCh1_-QpgzIdG-3QfCMfZi6w,41.646395651225504,2.3623113371297824,Catalunya,Massaviu: Pop alternatiu i música urbana,1.0
118,118,BELZONI,Pop-Rock,El Masnou (Maresme),None,41.48480557053802,2.3175189941011674,Catalunya,BELZONI: Pop-Rock,1.0
119,119,Kim the Mowgli,Pop Rock,Andorra la vella (Baix Camp),https://youtu.be/pgsCjg9uwlk,42.50942479638978,1.523559413604146,AndorralaVella,Kim the Mowgli: Pop Rock,4.0
120,120,SKÉLETORS,Rock-Metall,Girona (Gironès),https://www.youtube.com/watch?v=52r-wvlDraw,41.9853994065643,2.8275324943977194,Catalunya,SKÉLETORS: Rock-Metall,1.0
121,121,Malson Atmosfèric,"Rap, Trap, Hip/Hop, Urban",Sant Julià de Ramis (Gironès),https://www.youtube.com/watch?v=Q2aeYV3Xucs,42.031388310857,2.8602017675176756,Catalunya,"Malson Atmosfèric: Rap, Trap, Hip/Hop, Urban",1.0
122,122,Pol Bordas,Música Urbana,Girona (Gironès),https://www.youtube.com/watch?v=FOZrYjFAidU,41.98387461701159,2.820637540251371,Catalunya,Pol Bordas: Música Urbana,1.0
123,123,Saüc,Rock / Rock dur / Metal alternatiu,Balaguer (Noguera),https://www.youtube.com/watch?v=c-KH8tAP0I0,41.79164669858557,0.8132774611884652,Catalunya,Saüc: Rock / Rock dur / Metal alternatiu,1.0
124,124,Sabana,Pop,Granollers (Vallès Oriental),https://youtu.be/lSzoXbo4VSs,41.61133977523228,2.296226171311438,Catalunya,Sabana: Pop,1.0
125,125,Tomeu Juan Fuster,Cançó d'autor,Palma de Mallorca (Palma),https://www.youtube.com/playlist?list=PLIHZApSkCjI2gbrXGX0sEdxAD38LZ5qPv,39.57266165628488,2.651350857186913,Illes Balears,Tomeu Juan Fuster: Cançó d'autor,3.0
126,126,WAN HU,Pop-Folk-Indie,Barcelona (Barcelonès),https://www.youtube.com/watch?v=NRjW4ifxbRY,41.386473127310076,2.187381287519257,Catalunya,WAN HU: Pop-Folk-Indie,1.0
127,127,Marian,Pop-rock.,Santa Eulàlia de Riuprimer (Osona),https://www.youtube.com/watch?v=weOLhEcIc-0,41.918604232307565,2.196918307580062,Catalunya,Marian: Pop-rock.,1.0
128,128,Lalo Garau,Pop,Palma (Palma),https://www.youtube.com/watch?v=cG3wAXFYALU,39.574166700647325,2.650426203193566,Illes Balears,Lalo Garau: Pop,3.0
129,129,Saó,Fusió de músiques brasileres i llatines en català,Barcelona (Barcelonès),https://www.youtube.com/channel/UCPUd7QF_Jj9Xm1kqDZ2txrQ,41.38813607696426,2.1815154720742007,Catalunya,Saó: Fusió de músiques brasileres i llatines en català,1.0
130,130,Abast,Pop/Música de cantautor,Barcelona (Barcelonès),https://youtu.be/xnwSZv62FCA,41.387038056887114,2.184163135473524,Catalunya,Abast: Pop/Música de cantautor,1.0
131,131,Cuarto Segunda,Rap amb banda,"Lleida, Les Franqueses del Vallès, l'Ametlla i La Garriga. (Vallès Oriental)",https://www.youtube.com/watch?v=4_83piwLTzw,41.61692485159095,0.6367337430139234,Catalunya,Cuarto Segunda: Rap amb banda,1.0
132,132,Terra Ferma,"Ska Fusió, mescla de l'ska més clàssic amb rock, reggae i hip-hop.",Reus (Baix Camp),https://www.youtube.com/watch?v=tA8Ybx56aGQ,41.16240268511542,1.1094154233752986,Catalunya,"Terra Ferma: Ska Fusió, mescla de l'ska més clàssic amb rock, reggae i hip-hop.",1.0
133,133,Musclu,Pop electrònic,Barcelona (Barcelonès),https://www.youtube.com/watch?v=7qPKsZ8xe7o&fbclid=IwAR0OjiqS4gFf_KJSQ_fy0qY6cWREAD4rTE8dmVdbEM090lqI0TPqiR2CEds,41.392535593910125,2.17799298785216,Catalunya,Musclu: Pop electrònic,1.0
134,134,Pol Cortés,Pop,Sant Cugat del Vallès - Barcelona (Barcelonès),None,41.47488406696512,2.083303919875714,Catalunya,Pol Cortés: Pop,1.0
135,135,Sense Nom,Pop - Rock - Rumba catalana,Cornellà de Llobregat (Baix Llobregat),https://www.youtube.com/watch?v=AJ6WYgl16Xc,41.355933923574405,2.0761623395487723,Catalunya,Sense Nom: Pop - Rock - Rumba catalana,1.0
136,136,Cala Joia,Cantautor,Ciutadella de Menorca (Menorca),https://www.youtube.com/watch?v=hSz9IsC2TLA,40.005847429765005,3.8364967409693373,Illes Balears,Cala Joia: Cantautor,3.0
137,137,Cat Vicens,Folk acústic/cançó d'autor,Viladecans (Baix Llobregat),None,41.31801300690425,2.020992619272743,Catalunya,Cat Vicens: Folk acústic/cançó d'autor,1.0
138,138,MON,Pop-Rock,Blanes (Selva),https://youtu.be/yzMI5HTcnv0,41.683398676801744,2.7943754111406864,Catalunya,MON: Pop-Rock,1.0
